[
    {
        "supplierID": "4000000",
        "name": "Cacao Wonders",
        "ingredient": "cacao",
        "continent": "South America",
        "city": "Guayaquil",
        "district": "Las Pe\u00f1as",
        "size": "M",
        "longitude": "-79.8974",
        "latitude": "-2.1791",
        "approved": "Y"
    },
    {
        "supplierID": "4000001",
        "name": "Coconut Grove",
        "ingredient": "coconut",
        "continent": "Asia",
        "city": "Manila",
        "district": "Intramuros",
        "size": "S",
        "longitude": "121.0221",
        "latitude": "14.6042",
        "approved": "Y"
    },
    {
        "supplierID": "4000002",
        "name": "Almond Delights",
        "ingredient": "almonds",
        "continent": "Europe",
        "city": "Valencia",
        "district": "Ruzafa",
        "size": "L",
        "longitude": "-0.3762",
        "latitude": "39.4699",
        "approved": "Y"
    },
    {
        "supplierID": "4000003",
        "name": "Sugar Cane Harvest",
        "ingredient": "cane sugar",
        "continent": "South America",
        "city": "Sao Paulo",
        "district": "Vila Madalena",
        "size": "XL",
        "longitude": "-46.6333",
        "latitude": "-23.5489",
        "approved": "Y"
    },
    {
        "supplierID": "4000004",
        "name": "Vanilla Valley",
        "ingredient": "vanilla",
        "continent": "North America",
        "city": "Mexico City",
        "district": "Roma Norte",
        "size": "M",
        "longitude": "-99.1332",
        "latitude": "19.4326",
        "approved": "Y"
    },
    {
        "supplierID": "4000005",
        "name": "Pecan Pleasures",
        "ingredient": "pecans",
        "continent": "North America",
        "city": "Atlanta",
        "district": "Virginia-Highland",
        "size": "S",
        "longitude": "-84.3888",
        "latitude": "33.749",
        "approved": "Y"
    },
    {
        "supplierID": "4000006",
        "name": "Hazelnut Haven",
        "ingredient": "hazelnuts",
        "continent": "Europe",
        "city": "Istanbul",
        "district": "Kad\u0131k\u00f6y",
        "size": "XXL",
        "longitude": "28.9784",
        "latitude": "41.0082",
        "approved": "Y"
    },
    {
        "supplierID": "4000007",
        "name": "Cinnamon Spice",
        "ingredient": "cinnamon",
        "continent": "Asia",
        "city": "Colombo",
        "district": "Galle Face Green",
        "size": "L",
        "longitude": "79.8612",
        "latitude": "6.9271",
        "approved": "Y"
    },
    {
        "supplierID": "4000008",
        "name": "Cashew Corner",
        "ingredient": "cashews",
        "continent": "Asia",
        "city": "Goa",
        "district": "Anjuna Beach",
        "size": "XL",
        "longitude": "73.8067",
        "latitude": "15.3173",
        "approved": "Y"
    },
    {
        "supplierID": "4000009",
        "name": "Maple Monarch",
        "ingredient": "maple syrup",
        "continent": "North America",
        "city": "Montreal",
        "district": "Plateau Mont-Royal",
        "size": "M",
        "longitude": "-73.5673",
        "latitude": "45.5017",
        "approved": "Y"
    },
    {
        "supplierID": "4000010",
        "name": "Pistachio Palace",
        "ingredient": "pistachios",
        "continent": "Asia",
        "city": "Tehran",
        "district": "Tajrish Bazaar",
        "size": "S",
        "longitude": "51.4215",
        "latitude": "35.7106",
        "approved": "Y"
    },
    {
        "supplierID": "4000011",
        "name": "Oat Oasis",
        "ingredient": "oats",
        "continent": "Europe",
        "city": "Edinburgh",
        "district": "Stockbridge",
        "size": "L",
        "longitude": "-3.1883",
        "latitude": "55.9533",
        "approved": "Y"
    },
    {
        "supplierID": "4000012",
        "name": "Coffee Collective",
        "ingredient": "coffee",
        "continent": "South America",
        "city": "Medellin",
        "district": "El Poblado",
        "size": "XXL",
        "longitude": "-75.5638",
        "latitude": "6.2518",
        "approved": "Y"
    },
    {
        "supplierID": "4000013",
        "name": "Ginger Gems",
        "ingredient": "ginger",
        "continent": "Asia",
        "city": "Chennai",
        "district": "Mylapore",
        "size": "M",
        "longitude": "80.2707",
        "latitude": "13.0827",
        "approved": "Y"
    },
    {
        "supplierID": "4000014",
        "name": "Molasses Mills",
        "ingredient": "molasses",
        "continent": "Central America",
        "city": "Havana",
        "district": "Vedado",
        "size": "XL",
        "longitude": "-82.3665",
        "latitude": "23.1136",
        "approved": "Y"
    },
    {
        "supplierID": "4000015",
        "name": "Honey Hives",
        "ingredient": "honey",
        "continent": "Africa",
        "city": "Addis Ababa",
        "district": "Piazza",
        "size": "S",
        "longitude": "38.7575",
        "latitude": "9.0084",
        "approved": "Y"
    },
    {
        "supplierID": "4000016",
        "name": "Sesame Seeds",
        "ingredient": "sesame seeds",
        "continent": "Asia",
        "city": "Yangon",
        "district": "Chinatown",
        "size": "L",
        "longitude": "96.1611",
        "latitude": "16.8409",
        "approved": "Y"
    },
    {
        "supplierID": "4000017",
        "name": "Peanut Plantation",
        "ingredient": "peanuts",
        "continent": "Africa",
        "city": "Kano",
        "district": "Kurmi Market",
        "size": "M",
        "longitude": "8.5167",
        "latitude": "12.0022",
        "approved": "Y"
    },
    {
        "supplierID": "4000018",
        "name": "Raisin Ranch",
        "ingredient": "raisins",
        "continent": "Asia",
        "city": "Kabul",
        "district": "Chicken Street",
        "size": "XXL",
        "longitude": "69.1763",
        "latitude": "34.521",
        "approved": "Y"
    },
    {
        "supplierID": "4000019",
        "name": "Cardamom Cove",
        "ingredient": "cardamom",
        "continent": "Asia",
        "city": "Kozhikode",
        "district": "Mappila Bay",
        "size": "XL",
        "longitude": "75.7804",
        "latitude": "11.2588",
        "approved": "Y"
    },
    {
        "supplierID": "4000020",
        "name": "Clove Cliffs",
        "ingredient": "cloves",
        "continent": "Africa",
        "city": "Zanzibar",
        "district": "Stone Town",
        "size": "S",
        "longitude": "39.1918",
        "latitude": "-6.167",
        "approved": "Y"
    },
    {
        "supplierID": "4000021",
        "name": "Cocoa Crops",
        "ingredient": "cocoa butter",
        "continent": "South America",
        "city": "Caracas",
        "district": "Las Mercedes",
        "size": "M",
        "longitude": "-66.9036",
        "latitude": "10.4806",
        "approved": "Y"
    },
    {
        "supplierID": "4000022",
        "name": "Poppy Peaks",
        "ingredient": "poppy seeds",
        "continent": "Europe",
        "city": "Krakow",
        "district": "Kazimierz",
        "size": "S",
        "longitude": "19.9368",
        "latitude": "50.0647",
        "approved": "Y"
    },
    {
        "supplierID": "4000023",
        "name": "Fennel Fields",
        "ingredient": "fennel seeds",
        "continent": "Europe",
        "city": "Florence",
        "district": "Santo Spirito",
        "size": "L",
        "longitude": "11.2558",
        "latitude": "43.7695",
        "approved": "Y"
    },
    {
        "supplierID": "4000024",
        "name": "Anise Acres",
        "ingredient": "anise",
        "continent": "Asia",
        "city": "Izmir",
        "district": "Alsancak",
        "size": "XL",
        "longitude": "27.1384",
        "latitude": "38.4237",
        "approved": "Y"
    },
    {
        "supplierID": "4000025",
        "name": "Nutmeg Nirvana",
        "ingredient": "nutmeg",
        "continent": "Asia",
        "city": "Banda Aceh",
        "district": "Peunayong",
        "size": "M",
        "longitude": "95.3198",
        "latitude": "5.5577",
        "approved": "Y"
    },
    {
        "supplierID": "4000026",
        "name": "Mace Meadows",
        "ingredient": "mace",
        "continent": "Asia",
        "city": "Ambon",
        "district": "Namalatu",
        "size": "S",
        "longitude": "128.1753",
        "latitude": "-3.6953",
        "approved": "Y"
    }
]